[
    {
        "adress": "Museumsinsel 1 ",
        "audio": "false",
        "category": "other",
        "count": 1,
        "lat": 48.13114789999999,
        "lng": 11.5846167,
        "objectRecognition": "false",
        "owner": "Turm d. Dt. Museums, WWA M",
        "realtime": "false"
    },
    {
        "adress": "Ludwigstr 16",
        "audio": "false",
        "category": "publicSecurity, propertySec, other",
        "count": 31,
        "lat": 49.64099,
        "lng": 8.63966,
        "objectRecognition": "false",
        "owner": "Bayerische Staatsbibliothek, Bayerische Staatsbibliothek",
        "realtime": "true"
    },
    {
        "adress": "Am Sportpark 9, Unterhaching",
        "audio": "false",
        "category": "other",
        "count": 4,
        "lat": 48.0721297,
        "lng": 11.6175498,
        "objectRecognition": "false",
        "owner": "Sportpark Unterhaching, PP M\u00fcnchen",
        "realtime": "true"
    },
    {
        "adress": "Grasweg 74 ",
        "audio": "false",
        "category": "other",
        "count": 4,
        "lat": 49.49172,
        "lng": 10.88045,
        "objectRecognition": "false",
        "owner": "Audi Dome, PP M\u00fcnchen",
        "realtime": "true"
    },
    {
        "adress": "Gr\u00fcnwalder Str. 4",
        "audio": "false",
        "category": "other",
        "count": 8,
        "lat": 48.1105156,
        "lng": 11.5743508,
        "objectRecognition": "false",
        "owner": "Stadion Gr\u00fcnwalder Stra\u00dfe, PP M\u00fcnchen",
        "realtime": "true"
    },
    {
        "adress": "M\u00fcnchner Str. 22, Unterf\u00f6hring",
        "audio": "false",
        "category": "other",
        "count": 8,
        "lat": 48.24731999999999,
        "lng": 11.64753,
        "objectRecognition": "false",
        "owner": "Entsorgungspark Freimann, Heizkraftwerk M-Nord, Abfallwirtschaftsbetrieb M\u00fcnchen",
        "realtime": "true"
    },
    {
        "adress": "Alter Hof 1",
        "audio": "false",
        "category": "other",
        "count": 9,
        "lat": 48.1383691,
        "lng": 11.5779027,
        "objectRecognition": "true",
        "owner": "Alter Hof, nichtstaatliche Museen in Bayern",
        "realtime": "true"
    },
    {
        "adress": "Spiridon-Louis-Ring 27",
        "audio": "false",
        "category": "other",
        "count": 12,
        "lat": 48.172374,
        "lng": 11.5445243,
        "objectRecognition": "false",
        "owner": "Olympiapark Stadion, PP M\u00fcnchen",
        "realtime": "true"
    },
    {
        "adress": "Werner-Heisenberg-Allee 25",
        "audio": "false",
        "category": "other",
        "count": 80,
        "lat": 48.2186,
        "lng": 11.62362,
        "objectRecognition": "false",
        "owner": "Allianz Arena, PP M\u00fcnchen",
        "realtime": "true"
    },
    {
        "adress": "",
        "audio": "false",
        "category": "trafficpropertySec, other",
        "count": 1266,
        "lat": 0,
        "lng": 0,
        "objectRecognition": "false",
        "owner": "\u00d6PNV-Infrastruktur, Stadtwerke M\u00fcnchen GmbH",
        "realtime": "true"
    },
    {
        "adress": "Bayerstra\u00dfe 10a",
        "audio": "false",
        "category": "publicSecurity, propertySec",
        "count": 77,
        "lat": 48.13953,
        "lng": 11.55918,
        "objectRecognition": "false",
        "owner": "Hauptbahnhof, DB Station & Service AG",
        "realtime": "false"
    },
    {
        "adress": "Ludwigstr. 15",
        "audio": "true",
        "category": "publicSecurity, propertySec",
        "count": 11,
        "lat": 50.72143370000001,
        "lng": 11.3437153,
        "objectRecognition": "false",
        "owner": "LSG M\u00fcnchen Gerichtsgeb\u00e4ude Ludwigstra\u00dfe, BayLSG",
        "realtime": "true"
    },
    {
        "adress": "Sophienstra\u00dfe 7 ",
        "audio": "false",
        "category": "propertySec",
        "count": 1,
        "lat": 51.40711,
        "lng": 11.3794,
        "objectRecognition": "true",
        "owner": "Parkcaf\u00e9, P\u00e4chter",
        "realtime": "true"
    },
    {
        "adress": "",
        "audio": "false",
        "category": "propertySec",
        "count": 1,
        "lat": 0,
        "lng": 0,
        "objectRecognition": "false",
        "owner": "Fitnesscenter, Gesch\u00e4ftsleitung",
        "realtime": "false"
    },
    {
        "adress": "Herzogspitalstra\u00dfe 12",
        "audio": "false",
        "category": "propertySec",
        "count": 1,
        "lat": 48.1374791,
        "lng": 11.5688932,
        "objectRecognition": "false",
        "owner": "Justiz M\u00fcnchen, Herzogspitalstra\u00dfe 12, StMJV",
        "realtime": "false"
    },
    {
        "adress": "Galeriestra\u00dfe 4a",
        "audio": "false",
        "category": "propertySec",
        "count": 1,
        "lat": 48.1436144,
        "lng": 11.5811228,
        "objectRecognition": "false",
        "owner": "Galeristra\u00dfe 4a, Deutsches Theamtermuseum",
        "realtime": "false"
    },
    {
        "adress": "Residenzstra\u00dfe 1",
        "audio": "false",
        "category": "propertySec",
        "count": 1,
        "lat": 52.57400999999999,
        "lng": 13.35882,
        "objectRecognition": "false",
        "owner": "Residenzstra\u00dfe 1, Staatliche M\u00fcnzsammlung",
        "realtime": "false"
    },
    {
        "adress": "",
        "audio": "false",
        "category": "propertySec",
        "count": 2,
        "lat": 0,
        "lng": 0,
        "objectRecognition": "false",
        "owner": "Gastst\u00e4tte, Gesch\u00e4ftsleitung",
        "realtime": "true"
    },
    {
        "adress": "",
        "audio": "false",
        "category": "propertySec",
        "count": 1,
        "lat": 0,
        "lng": 0,
        "objectRecognition": "false",
        "owner": "Lebensmittelhandel, Gesch\u00e4ftsleitung",
        "realtime": "true"
    },
    {
        "adress": "",
        "audio": "false",
        "category": "propertySec",
        "count": 1,
        "lat": 0,
        "lng": 0,
        "objectRecognition": "false",
        "owner": "Gastst\u00e4tte, Gesch\u00e4ftsleitung",
        "realtime": "true"
    },
    {
        "adress": "",
        "audio": "false",
        "category": "propertySec",
        "count": 1,
        "lat": 0,
        "lng": 0,
        "objectRecognition": "false",
        "owner": "Technikmarkt, Gesch\u00e4ftsleitung",
        "realtime": "true"
    },
    {
        "adress": "Arnulfstra\u00dfe 1",
        "audio": "false",
        "category": "propertySec",
        "count": 1,
        "lat": 48.1411869,
        "lng": 11.5597421,
        "objectRecognition": "false",
        "owner": "Arnulfstra\u00dfe 1, PP M\u00fcnchen",
        "realtime": "true"
    },
    {
        "adress": "Bayerstra\u00dfe 35 - 37",
        "audio": "false",
        "category": "propertySec",
        "count": 1,
        "lat": 48.139,
        "lng": 11.55932,
        "objectRecognition": "false",
        "owner": "Bayerstra\u00dfe 35 - 37, PP M\u00fcnchen",
        "realtime": "true"
    },
    {
        "adress": "Rechnerstra\u00dfe 11 z",
        "audio": "false",
        "category": "propertySec",
        "count": 1,
        "lat": 48.1067291,
        "lng": 11.7406511,
        "objectRecognition": "false",
        "owner": "Rechnerstra\u00dfe 11 z, PP M\u00fcnchen",
        "realtime": "true"
    },
    {
        "adress": "Romanstra\u00dfe 13",
        "audio": "false",
        "category": "propertySec",
        "count": 1,
        "lat": 43.4808385,
        "lng": 5.462672899999999,
        "objectRecognition": "false",
        "owner": "Romanstra\u00dfe 13, PP M\u00fcnchen",
        "realtime": "true"
    },
    {
        "adress": "Winzererstr 9",
        "audio": "false",
        "category": "propertySec",
        "count": 1,
        "lat": 48.15622,
        "lng": 11.55901,
        "objectRecognition": "false",
        "owner": "Eckbau Nord Winzererstr. 9, StMAS",
        "realtime": "true"
    },
    {
        "adress": "Winzererstr 9",
        "audio": "false",
        "category": "propertySec",
        "count": 1,
        "lat": 48.15622,
        "lng": 11.55901,
        "objectRecognition": "false",
        "owner": "Eckbau S\u00fcd Winzererstr. 9, StMAS",
        "realtime": "true"
    },
    {
        "adress": "He\u00dfstr. 104",
        "audio": "false",
        "category": "propertySec",
        "count": 1,
        "lat": 48.1545,
        "lng": 11.55776,
        "objectRecognition": "false",
        "owner": "He\u00dfstr. 104, StMAS",
        "realtime": "true"
    },
    {
        "adress": "Arnulfstr. 16-18",
        "audio": "false",
        "category": "propertySec",
        "count": 1,
        "lat": 48.14192269999999,
        "lng": 11.5581821,
        "objectRecognition": "false",
        "owner": "Justiz M\u00fcnchen, Arnulfstra\u00dfe 16-18, StMJV",
        "realtime": "true"
    },
    {
        "adress": "Seidelstra\u00dfe 8",
        "audio": "false",
        "category": "propertySec",
        "count": 1,
        "lat": 49.9745636,
        "lng": 9.1247051,
        "objectRecognition": "false",
        "owner": "Justiz M\u00fcnchen, Seidelstra\u00dfe 8, StMJV",
        "realtime": "true"
    },
    {
        "adress": "He\u00dfstra\u00dfe 128 ",
        "audio": "false",
        "category": "propertySec",
        "count": 1,
        "lat": 48.1570885,
        "lng": 11.5539411,
        "objectRecognition": "false",
        "owner": "Dienstgeb\u00e4ude, LfU",
        "realtime": "true"
    },
    {
        "adress": "Marchioninistra\u00dfe 15",
        "audio": "false",
        "category": "propertySec",
        "count": 1,
        "lat": 48.11102,
        "lng": 11.47031,
        "objectRecognition": "false",
        "owner": "Klinikum Gro\u00dfhadern Pforte Haupteingang, Klinikum der Universit\u00e4t M\u00fcnchen",
        "realtime": "true"
    },
    {
        "adress": "Maistra\u00dfe 11 ",
        "audio": "false",
        "category": "propertySec",
        "count": 1,
        "lat": 52.0851765,
        "lng": 10.4692152,
        "objectRecognition": "false",
        "owner": "Innenstadt Frauenklinik, Klinikum der Universit\u00e4t M\u00fcnchen",
        "realtime": "true"
    },
    {
        "adress": "Lindwurmstra\u00dfe 2 a",
        "audio": "false",
        "category": "propertySec",
        "count": 1,
        "lat": 48.13082,
        "lng": 11.56047,
        "objectRecognition": "false",
        "owner": "Innenstadt Mund Kiefer Gesichtschirurgie, Klinikum der Universit\u00e4t M\u00fcnchen",
        "realtime": "true"
    },
    {
        "adress": "Lindwurmstr. 4 ",
        "audio": "false",
        "category": "propertySec",
        "count": 1,
        "lat": 48.1302545,
        "lng": 11.5593679,
        "objectRecognition": "false",
        "owner": "Innenstadt Kinderklinik, Klinikum der Universit\u00e4t M\u00fcnchen",
        "realtime": "true"
    },
    {
        "adress": "Ziemssenstra\u00dfe 1",
        "audio": "false",
        "category": "propertySec",
        "count": 1,
        "lat": 48.13244539999999,
        "lng": 11.5624686,
        "objectRecognition": "false",
        "owner": "Innenstadt Poliklinik, Klinikum der Universit\u00e4t M\u00fcnchen",
        "realtime": "true"
    },
    {
        "adress": "Frankfurter Ring 179",
        "audio": "false",
        "category": "propertySec",
        "count": 1,
        "lat": 48.1876502,
        "lng": 11.5959309,
        "objectRecognition": "false",
        "owner": "HKW Freimann, ",
        "realtime": "true"
    },
    {
        "adress": "Ismaninger Stra\u00dfe 95",
        "audio": "false",
        "category": "propertySec",
        "count": 1,
        "lat": 48.1475,
        "lng": 11.6037,
        "objectRecognition": "false",
        "owner": "Finanzgericht M\u00fcnchen, FG M\u00fcnchen",
        "realtime": "true"
    },
    {
        "adress": "Sophienstra\u00dfe 6 ",
        "audio": "false",
        "category": "propertySec",
        "count": 1,
        "lat": 51.40658,
        "lng": 11.37995,
        "objectRecognition": "false",
        "owner": "BayLfSt, BayLfSt",
        "realtime": "true"
    },
    {
        "adress": "Sophienstra\u00dfe 6 ",
        "audio": "false",
        "category": "propertySec",
        "count": 1,
        "lat": 51.40658,
        "lng": 11.37995,
        "objectRecognition": "false",
        "owner": "BayLfSt, BayLfSt",
        "realtime": "true"
    },
    {
        "adress": "Sophienstra\u00dfe 6 ",
        "audio": "false",
        "category": "propertySec",
        "count": 1,
        "lat": 51.40658,
        "lng": 11.37995,
        "objectRecognition": "false",
        "owner": "BayLfSt, BayLfSt",
        "realtime": "true"
    },
    {
        "adress": "",
        "audio": "false",
        "category": "propertySec",
        "count": 2,
        "lat": 0,
        "lng": 0,
        "objectRecognition": "false",
        "owner": "Taxizentrale, Gesch\u00e4ftsleitung",
        "realtime": "false"
    },
    {
        "adress": "",
        "audio": "false",
        "category": "propertySec",
        "count": 2,
        "lat": 0,
        "lng": 0,
        "objectRecognition": "false",
        "owner": "B\u00fcror\u00e4ume, Gesch\u00e4ftsleitung",
        "realtime": "false"
    },
    {
        "adress": "Infanteriestra\u00dfe 9",
        "audio": "false",
        "category": "propertySec",
        "count": 2,
        "lat": 49.445559,
        "lng": 11.8436155,
        "objectRecognition": "false",
        "owner": "Justiz M\u00fcnchen, Infanteriestra\u00dfe 9, StMJV",
        "realtime": "false"
    },
    {
        "adress": "",
        "audio": "false",
        "category": "propertySec",
        "count": 2,
        "lat": 0,
        "lng": 0,
        "objectRecognition": "false",
        "owner": "Gastst\u00e4tte, Gesch\u00e4ftsleitung",
        "realtime": "true"
    },
    {
        "adress": "Orleansstr. 34",
        "audio": "false",
        "category": "propertySec",
        "count": 2,
        "lat": 43.4678586,
        "lng": 3.1772267,
        "objectRecognition": "false",
        "owner": "Orleansstr. 34, BLKA",
        "realtime": "true"
    },
    {
        "adress": "",
        "audio": "false",
        "category": "propertySec",
        "count": 2,
        "lat": 0,
        "lng": 0,
        "objectRecognition": "false",
        "owner": "Dienstgeb\u00e4ude, Polizei",
        "realtime": "true"
    },
    {
        "adress": "",
        "audio": "false",
        "category": "propertySec",
        "count": 2,
        "lat": 0,
        "lng": 0,
        "objectRecognition": "false",
        "owner": "Handelsunternehmen, Vorstand",
        "realtime": "true"
    },
    {
        "adress": "Am Neudeck",
        "audio": "false",
        "category": "propertySec",
        "count": 2,
        "lat": 48.405807,
        "lng": 12.7567996,
        "objectRecognition": "false",
        "owner": "Am Neudeck, PP M\u00fcnchen",
        "realtime": "true"
    },
    {
        "adress": "Festwiesnwache",
        "audio": "false",
        "category": "propertySec",
        "count": 2,
        "lat": 0,
        "lng": 0,
        "objectRecognition": "false",
        "owner": "Festwiesnwache, PP M\u00fcnchen",
        "realtime": "true"
    },
    {
        "adress": "Freiligrathstra\u00dfe 81",
        "audio": "false",
        "category": "propertySec",
        "count": 2,
        "lat": 53.5392009,
        "lng": 8.1332644,
        "objectRecognition": "false",
        "owner": "Freiligrathstra\u00dfe 81, PP M\u00fcnchen",
        "realtime": "true"
    },
    {
        "adress": "Hofkurat-Diehl-Stra\u00dfe 9",
        "audio": "false",
        "category": "propertySec",
        "count": 2,
        "lat": 48.25244,
        "lng": 11.56128,
        "objectRecognition": "false",
        "owner": "Hofkurat-Diehl-Stra\u00dfe 9, PP M\u00fcnchen",
        "realtime": "true"
    },
    {
        "adress": "Rapotostra\u00dfe 1",
        "audio": "false",
        "category": "propertySec",
        "count": 2,
        "lat": 48.1430255,
        "lng": 11.4988221,
        "objectRecognition": "false",
        "owner": "Rapotostra\u00dfe 1, PP M\u00fcnchen",
        "realtime": "true"
    },
    {
        "adress": "Winzererstra\u00dfe 54",
        "audio": "false",
        "category": "propertySec",
        "count": 2,
        "lat": 48.15812409999999,
        "lng": 11.56103,
        "objectRecognition": "false",
        "owner": "Winzererstra\u00dfe 54, PP M\u00fcnchen",
        "realtime": "true"
    },
    {
        "adress": "",
        "audio": "false",
        "category": "propertySec",
        "count": 2,
        "lat": 0,
        "lng": 0,
        "objectRecognition": "false",
        "owner": "Dienstgeb\u00e4ude VPI FFB, Polizei",
        "realtime": "true"
    },
    {
        "adress": "Katharina-von-Bora-Stra\u00dfe 10",
        "audio": "false",
        "category": "propertySec",
        "count": 2,
        "lat": 48.14435,
        "lng": 11.56634,
        "objectRecognition": "false",
        "owner": "Katharina-von-Bora-Stra\u00dfe 10, Zentralinstitut f\u00fcr Kunstgeschichte",
        "realtime": "true"
    },
    {
        "adress": "Marchioninistra\u00dfe 15",
        "audio": "false",
        "category": "propertySec",
        "count": 2,
        "lat": 48.11102,
        "lng": 11.47031,
        "objectRecognition": "false",
        "owner": "Gro\u00dfhadern Nordpforte, Klinikum der Universit\u00e4t M\u00fcnchen",
        "realtime": "true"
    },
    {
        "adress": "Ziemssenstra\u00dfe 1",
        "audio": "false",
        "category": "propertySec",
        "count": 2,
        "lat": 48.13244539999999,
        "lng": 11.5624686,
        "objectRecognition": "false",
        "owner": "Innenstadt Med. Klinik, Klinikum der Universit\u00e4t M\u00fcnchen",
        "realtime": "true"
    },
    {
        "adress": "Zamdorfer Stra\u00dfe 92",
        "audio": "false",
        "category": "propertySec",
        "count": 2,
        "lat": 48.1387066,
        "lng": 11.643839,
        "objectRecognition": "false",
        "owner": "Hauptm\u00fcnzamt, StMF",
        "realtime": "true"
    },
    {
        "adress": "Prinz-Ludwig-Stra\u00dfe 1 \u2013 3",
        "audio": "false",
        "category": "propertySec",
        "count": 2,
        "lat": 50.00326,
        "lng": 12.30524,
        "objectRecognition": "false",
        "owner": "FA M\u00fcnchen, BayLfSt",
        "realtime": "true"
    },
    {
        "adress": "Ludwigstra\u00dfe 28",
        "audio": "false",
        "category": "propertySec",
        "count": 3,
        "lat": 49.3285315,
        "lng": 11.0267684,
        "objectRecognition": "false",
        "owner": "Ludwigstra\u00dfe 28, Ludwig-Maximilians-Universit\u00e4t",
        "realtime": "false"
    },
    {
        "adress": "T\u00fcrkenstra\u00dfe 4 ",
        "audio": "false",
        "category": "propertySec",
        "count": 3,
        "lat": 47.9150735,
        "lng": 16.6941994,
        "objectRecognition": "false",
        "owner": "Palais Pinakothek, Staatsgem\u00e4ldesammlungen",
        "realtime": "false"
    },
    {
        "adress": "Karlstra\u00dfe 9 - 11 ",
        "audio": "false",
        "category": "propertySec",
        "count": 3,
        "lat": 29.9661932,
        "lng": -92.09279029999999,
        "objectRecognition": "false",
        "owner": "FA M\u00fcnchen, BayLfSt",
        "realtime": "false"
    },
    {
        "adress": "Max-Planck-Str. 1",
        "audio": "false",
        "category": "propertySec",
        "count": 3,
        "lat": 50.3546531,
        "lng": 11.2191061,
        "objectRecognition": "false",
        "owner": "Maximilianeum, Bayer. Landtag",
        "realtime": "true"
    },
    {
        "adress": "Bad-Schachener Stra\u00dfe 4",
        "audio": "false",
        "category": "propertySec",
        "count": 3,
        "lat": 48.1204,
        "lng": 11.61456,
        "objectRecognition": "false",
        "owner": "Bad-Schachener Stra\u00dfe 4, PP M\u00fcnchen",
        "realtime": "true"
    },
    {
        "adress": "Institutsstra\u00dfe 1",
        "audio": "false",
        "category": "propertySec",
        "count": 3,
        "lat": 47.8323743,
        "lng": 16.1673291,
        "objectRecognition": "false",
        "owner": "Institutsstra\u00dfe 1, PP M\u00fcnchen",
        "realtime": "true"
    },
    {
        "adress": "Leuchtenbergstra\u00dfe 1",
        "audio": "false",
        "category": "propertySec",
        "count": 3,
        "lat": 49.6071937,
        "lng": 9.7454284,
        "objectRecognition": "false",
        "owner": "Leuchtenbergstra\u00dfe 1, PP M\u00fcnchen",
        "realtime": "true"
    },
    {
        "adress": "Trautenwolfstra\u00dfe 4",
        "audio": "false",
        "category": "propertySec",
        "count": 3,
        "lat": 48.15773,
        "lng": 11.58582,
        "objectRecognition": "false",
        "owner": "Trautenwolfstra\u00dfe 4, PP M\u00fcnchen",
        "realtime": "true"
    },
    {
        "adress": "Adenauerring 31",
        "audio": "false",
        "category": "propertySec",
        "count": 3,
        "lat": 51.19681000000001,
        "lng": 6.66732,
        "objectRecognition": "false",
        "owner": "Adenauerring 31, PP M\u00fcnchen",
        "realtime": "true"
    },
    {
        "adress": "Moosacher Stra\u00dfe 77",
        "audio": "false",
        "category": "propertySec",
        "count": 3,
        "lat": 48.18545030000001,
        "lng": 11.5533004,
        "objectRecognition": "false",
        "owner": "Moosacher Stra\u00dfe 77, PP M\u00fcnchen",
        "realtime": "true"
    },
    {
        "adress": "Ottobrunner Stra\u00dfe 7",
        "audio": "false",
        "category": "propertySec",
        "count": 3,
        "lat": 48.11237999999999,
        "lng": 11.61761,
        "objectRecognition": "false",
        "owner": "Ottobrunner Stra\u00dfe 7, PP M\u00fcnchen",
        "realtime": "true"
    },
    {
        "adress": "Schellingstr. 155",
        "audio": "false",
        "category": "propertySec",
        "count": 3,
        "lat": 48.154545,
        "lng": 11.558041,
        "objectRecognition": "false",
        "owner": "Schellingstr. 155, StMAS",
        "realtime": "true"
    },
    {
        "adress": "Heidemannstr. 50",
        "audio": "false",
        "category": "propertySec",
        "count": 3,
        "lat": 48.20146099999999,
        "lng": 11.5933886,
        "objectRecognition": "false",
        "owner": "Aufnahmeeinrichtung f\u00fcr Asylbewerber, Regierung von Oberbayern",
        "realtime": "true"
    },
    {
        "adress": "Infanteriestra\u00dfe 5",
        "audio": "false",
        "category": "propertySec",
        "count": 3,
        "lat": 48.15796,
        "lng": 11.55671,
        "objectRecognition": "false",
        "owner": "Justiz M\u00fcnchen, Infanteriestra\u00dfe 5, StMJV",
        "realtime": "true"
    },
    {
        "adress": "Nu\u00dfbaumstra\u00dfe 20",
        "audio": "false",
        "category": "propertySec",
        "count": 3,
        "lat": 51.14187,
        "lng": 7.01199,
        "objectRecognition": "false",
        "owner": "Innenstadt Chirurgie, Klinikum der Universit\u00e4t M\u00fcnchen",
        "realtime": "true"
    },
    {
        "adress": "Rosenheimer Stra\u00dfe 1",
        "audio": "false",
        "category": "propertySec",
        "count": 3,
        "lat": 48.5106097,
        "lng": 12.1565141,
        "objectRecognition": "false",
        "owner": "Volksbad, SWM GmbH, B\u00e4der",
        "realtime": "true"
    },
    {
        "adress": "Coubertinplatz ",
        "audio": "false",
        "category": "propertySec",
        "count": 3,
        "lat": 52.5123026,
        "lng": 13.2402729,
        "objectRecognition": "false",
        "owner": "Olympia-Schwimmhalle, SWM GmbH, B\u00e4der",
        "realtime": "true"
    },
    {
        "adress": "Georg-Brauchle-Ring 29 ",
        "audio": "false",
        "category": "propertySec",
        "count": 3,
        "lat": 48.1760668,
        "lng": 11.5349497,
        "objectRecognition": "false",
        "owner": "AWM Betriebsgel\u00e4nde, Abfallwirtschaftsbetrieb M\u00fcnchen",
        "realtime": "true"
    },
    {
        "adress": "",
        "audio": "false",
        "category": "propertySec",
        "count": 4,
        "lat": 0,
        "lng": 0,
        "objectRecognition": "false",
        "owner": "Technikhandel, Gesch\u00e4ftsleitung",
        "realtime": "true"
    },
    {
        "adress": "Johann-Fichte-Stra\u00dfe 5",
        "audio": "false",
        "category": "propertySec",
        "count": 4,
        "lat": 48.1695435,
        "lng": 11.5878273,
        "objectRecognition": "false",
        "owner": "Johann-Fichte-Stra\u00dfe 5, PP M\u00fcnchen",
        "realtime": "true"
    },
    {
        "adress": "Beethovenstra\u00dfe 5",
        "audio": "false",
        "category": "propertySec",
        "count": 4,
        "lat": 39.06854999999999,
        "lng": -76.945724,
        "objectRecognition": "false",
        "owner": "Beethovenstra\u00dfe 5, PP M\u00fcnchen",
        "realtime": "true"
    },
    {
        "adress": "T\u00f6lzer Stra\u00dfe 34",
        "audio": "false",
        "category": "propertySec",
        "count": 4,
        "lat": 47.77263,
        "lng": 11.6645,
        "objectRecognition": "false",
        "owner": "T\u00f6lzer Stra\u00dfe 34, PP M\u00fcnchen",
        "realtime": "true"
    },
    {
        "adress": "Winzererstr 9",
        "audio": "false",
        "category": "propertySec",
        "count": 4,
        "lat": 48.15622,
        "lng": 11.55901,
        "objectRecognition": "false",
        "owner": "Hauptgeb\u00e4ude Winzererstr. 9, StMAS",
        "realtime": "true"
    },
    {
        "adress": "Denisstra\u00dfe 3",
        "audio": "false",
        "category": "propertySec",
        "count": 4,
        "lat": 48.1449304,
        "lng": 11.5560998,
        "objectRecognition": "false",
        "owner": "Justiz M\u00fcnchen (LG II, OLG), Denisstra\u00dfe 3, StMJV",
        "realtime": "true"
    },
    {
        "adress": "Schlei\u00dfheimerstra\u00dfe 139",
        "audio": "false",
        "category": "propertySec",
        "count": 4,
        "lat": 48.1640045,
        "lng": 11.5642189,
        "objectRecognition": "false",
        "owner": "OLG,Schlei\u00dfheimerstra\u00dfe 139, StMJV",
        "realtime": "true"
    },
    {
        "adress": "Postillonstra\u00dfe 17",
        "audio": "false",
        "category": "propertySec",
        "count": 4,
        "lat": 46.9517177,
        "lng": 1.9997912,
        "objectRecognition": "false",
        "owner": "Dantebad, SWM GmbH, B\u00e4der",
        "realtime": "true"
    },
    {
        "adress": "Lothstra\u00dfe 34",
        "audio": "false",
        "category": "propertySec",
        "count": 5,
        "lat": 48.1551143,
        "lng": 11.5536475,
        "objectRecognition": "false",
        "owner": "Lothstra\u00dfe 34, Hochsch. f\u00fcr angewandte Wissenschaften",
        "realtime": "false"
    },
    {
        "adress": "Werner-Eckert-Stra\u00dfe 12",
        "audio": "false",
        "category": "propertySec",
        "count": 5,
        "lat": 48.1343298,
        "lng": 11.6878735,
        "objectRecognition": "false",
        "owner": "Werner-Eckert-Stra\u00dfe 12, PP M\u00fcnchen",
        "realtime": "true"
    },
    {
        "adress": "Treffauerstra\u00dfe 56",
        "audio": "false",
        "category": "propertySec",
        "count": 5,
        "lat": 48.11789,
        "lng": 11.51779,
        "objectRecognition": "false",
        "owner": "Treffauerstra\u00dfe 56, PP M\u00fcnchen",
        "realtime": "true"
    },
    {
        "adress": "Franz-Josef-Strau\u00df-Ring 4 ",
        "audio": "false",
        "category": "propertySec",
        "count": 6,
        "lat": 48.1436077,
        "lng": 11.5849194,
        "objectRecognition": "false",
        "owner": "Oberste Baubeh\u00f6rde, Oberste Baubeh\u00f6rde",
        "realtime": "true"
    },
    {
        "adress": "Tegernseer Landstra\u00dfe 210",
        "audio": "false",
        "category": "propertySec",
        "count": 6,
        "lat": 48.10138569999999,
        "lng": 11.5839604,
        "objectRecognition": "false",
        "owner": "Tegernseer Landstra\u00dfe 210, PP M\u00fcnchen",
        "realtime": "true"
    },
    {
        "adress": "Schlei\u00dfheimer Stra\u00dfe 142",
        "audio": "false",
        "category": "propertySec",
        "count": 6,
        "lat": 48.16032,
        "lng": 11.56391,
        "objectRecognition": "false",
        "owner": "Nordbad, SWM GmbH, B\u00e4der",
        "realtime": "true"
    },
    {
        "adress": "Heinrich-Wieland-Stra\u00dfe 24",
        "audio": "false",
        "category": "propertySec",
        "count": 6,
        "lat": 0,
        "lng": 0,
        "objectRecognition": "false",
        "owner": "Michaelibad, SWM GmbH, B\u00e4der",
        "realtime": "true"
    },
    {
        "adress": "Emmy-Noether-Stra\u00dfe 2",
        "audio": "false",
        "category": "propertySec",
        "count": 6,
        "lat": 48.01214,
        "lng": 7.836074,
        "objectRecognition": "false",
        "owner": "Stadtwerkszentrale, SWM GmbH",
        "realtime": "true"
    },
    {
        "adress": "Mariahilfplatz 17 ",
        "audio": "false",
        "category": "propertySec",
        "count": 6,
        "lat": 48.12417000000001,
        "lng": 11.58273,
        "objectRecognition": "false",
        "owner": "Dienstgeb\u00e4ude, Landratsamt M\u00fcnchen",
        "realtime": "true"
    },
    {
        "adress": "Prinzregentenplatz 16",
        "audio": "false",
        "category": "propertySec",
        "count": 7,
        "lat": 48.1388,
        "lng": 11.60722,
        "objectRecognition": "false",
        "owner": "Prinzregentenplatz 16, PP M\u00fcnchen",
        "realtime": "true"
    },
    {
        "adress": "Weinbergerstra\u00dfe 11",
        "audio": "false",
        "category": "propertySec",
        "count": 7,
        "lat": 49.2440824,
        "lng": 10.4121728,
        "objectRecognition": "false",
        "owner": "Westbad, SWM GmbH, B\u00e4der",
        "realtime": "true"
    },
    {
        "adress": "M\u00fcnchner Str. 22 ",
        "audio": "false",
        "category": "propertySec",
        "count": 7,
        "lat": 47.5671392,
        "lng": 11.142135,
        "objectRecognition": "false",
        "owner": "Heizkraftwerk Nord, ",
        "realtime": "true"
    },
    {
        "adress": "Am Stadtpark 20",
        "audio": "false",
        "category": "propertySec",
        "count": 8,
        "lat": 48.20535839999999,
        "lng": 16.3830903,
        "objectRecognition": "false",
        "owner": "Am Stadtpark 20, Hochsch. f\u00fcr angewandte Wissenschaften",
        "realtime": "false"
    },
    {
        "adress": "Prielmayerstr. 5",
        "audio": "false",
        "category": "propertySec",
        "count": 8,
        "lat": 48.30474,
        "lng": 11.91118,
        "objectRecognition": "false",
        "owner": "Justiz M\u00fcnchen, Prielmayerstra\u00dfe 5, StMJV",
        "realtime": "true"
    },
    {
        "adress": "Alter Hof 2",
        "audio": "false",
        "category": "propertySec",
        "count": 8,
        "lat": 52.50624000000001,
        "lng": 11.13804,
        "objectRecognition": "false",
        "owner": "Alter Hof 2, Bayerisches Landesamt f\u00fcr Denkmalpflege",
        "realtime": "true"
    },
    {
        "adress": "Maria-Theresia-Stra\u00dfe 23",
        "audio": "false",
        "category": "propertySec",
        "count": 8,
        "lat": 48.14364,
        "lng": 11.59895,
        "objectRecognition": "false",
        "owner": "Bibliothek, Technische Universit\u00e4t M\u00fcnchen",
        "realtime": "true"
    },
    {
        "adress": "Gollierstra\u00dfe 70 ",
        "audio": "false",
        "category": "propertySec",
        "count": 9,
        "lat": 48.1364548,
        "lng": 11.5334747,
        "objectRecognition": "false",
        "owner": "GH Laim, MGH",
        "realtime": "false"
    },
    {
        "adress": "Prinzregentenstra\u00dfe 80",
        "audio": "false",
        "category": "propertySec",
        "count": 9,
        "lat": 47.8620498,
        "lng": 12.1101677,
        "objectRecognition": "false",
        "owner": "Prinzregentenstadion, SWM GmbH, B\u00e4der",
        "realtime": "true"
    },
    {
        "adress": "Landshuter Allee 38",
        "audio": "false",
        "category": "propertySec",
        "count": 10,
        "lat": 48.1493881,
        "lng": 11.5371841,
        "objectRecognition": "false",
        "owner": "Landshuter Allee 38, PP M\u00fcnchen",
        "realtime": "true"
    },
    {
        "adress": "Ludwigstr. 2",
        "audio": "false",
        "category": "propertySec",
        "count": 10,
        "lat": 50.7210069,
        "lng": 11.3440215,
        "objectRecognition": "false",
        "owner": "Ludwigstra\u00dfe 2, 80539 M\u00fcnchen, StMELF",
        "realtime": "true"
    },
    {
        "adress": "Nymphenburgerstra\u00dfe 16",
        "audio": "false",
        "category": "propertySec",
        "count": 11,
        "lat": 48.14859999999999,
        "lng": 11.55458,
        "objectRecognition": "false",
        "owner": "Justiz M\u00fcnchen, Nymphenburgerstra\u00dfe 16, StMJV",
        "realtime": "true"
    },
    {
        "adress": "Linprunstra\u00dfe 25",
        "audio": "false",
        "category": "propertySec",
        "count": 11,
        "lat": 49.07743,
        "lng": 12.88407,
        "objectRecognition": "false",
        "owner": "Justiz M\u00fcnchen, Linprunstra\u00dfe 25, StMJV",
        "realtime": "true"
    },
    {
        "adress": "Prielmayerstr. 7",
        "audio": "false",
        "category": "propertySec",
        "count": 12,
        "lat": 48.30409,
        "lng": 11.91055,
        "objectRecognition": "false",
        "owner": "LG, StMJ, OLG, Prielmayerstra\u00dfe 7, M\u00fcnchen, StMJV",
        "realtime": "true"
    },
    {
        "adress": "Odeonsplatz 4 ",
        "audio": "false",
        "category": "propertySec",
        "count": 12,
        "lat": 48.1435708,
        "lng": 11.5781023,
        "objectRecognition": "false",
        "owner": "StMF, StMF",
        "realtime": "true"
    },
    {
        "adress": "An der Point ",
        "audio": "false",
        "category": "traffic, propertySec",
        "count": 28,
        "lat": 48.1414255,
        "lng": 11.6868179,
        "objectRecognition": "false",
        "owner": "Messe M\u00fcnchen, Messe M\u00fcnchen",
        "realtime": "true"
    },
    {
        "adress": "Richelstr 11",
        "audio": "false",
        "category": "propertySec",
        "count": 15,
        "lat": 48.14537,
        "lng": 11.5295,
        "objectRecognition": "false",
        "owner": "SG M\u00fcnchen Gerichtsgeb\u00e4ude Richelstra\u00dfe, SG M\u00fcnchen",
        "realtime": "true"
    },
    {
        "adress": "Barbarastr. 4",
        "audio": "false",
        "category": "propertySec",
        "count": 17,
        "lat": 30.1944636,
        "lng": -92.3299342,
        "objectRecognition": "false",
        "owner": "Barbarastr. 4, BLKA",
        "realtime": "true"
    },
    {
        "adress": "",
        "audio": "false",
        "category": "propertySec",
        "count": 18,
        "lat": 0,
        "lng": 0,
        "objectRecognition": "false",
        "owner": "Konzernzentrale, Gesch\u00e4ftsleitung",
        "realtime": "true"
    },
    {
        "adress": "Hansastra\u00dfe 24",
        "audio": "false",
        "category": "propertySec",
        "count": 19,
        "lat": 49.42790350000001,
        "lng": 11.0405047,
        "objectRecognition": "false",
        "owner": "Hansastra\u00dfe 24, PP M\u00fcnchen",
        "realtime": "true"
    },
    {
        "adress": "Alexandrastra\u00dfe 4",
        "audio": "false",
        "category": "propertySec",
        "count": 20,
        "lat": 49.97322,
        "lng": 9.15066,
        "objectRecognition": "false",
        "owner": "Landesamt f\u00fcr Vermessung und Geoinformation, StMF",
        "realtime": "true"
    },
    {
        "adress": "Residenzstr. 1",
        "audio": "false",
        "category": "propertySec",
        "count": 27,
        "lat": 52.57400999999999,
        "lng": 13.35882,
        "objectRecognition": "false",
        "owner": "Residenz, Bay. Schl\u00f6sserverw.",
        "realtime": "true"
    },
    {
        "adress": "Odeonsplatz 3",
        "audio": "false",
        "category": "propertySec",
        "count": 28,
        "lat": 48.1435081,
        "lng": 11.5773252,
        "objectRecognition": "false",
        "owner": "Dienstgeb\u00e4ude, StMI",
        "realtime": "true"
    },
    {
        "adress": "Maillingerstr. 15",
        "audio": "false",
        "category": "propertySec",
        "count": 31,
        "lat": 47.94936999999999,
        "lng": 11.97053,
        "objectRecognition": "false",
        "owner": "Maillingerstr. 15, BLKA",
        "realtime": "true"
    },
    {
        "adress": "Franz-Josef-Strau\u00df-Ring 1",
        "audio": "false",
        "category": "propertySec",
        "count": 32,
        "lat": 48.14194,
        "lng": 11.58187,
        "objectRecognition": "false",
        "owner": "Franz-J.-S.-Ring 1, Bay. Staatskanzlei",
        "realtime": "true"
    },
    {
        "adress": "Ettstra\u00dfe 2",
        "audio": "false",
        "category": "propertySec",
        "count": 33,
        "lat": 48.13919,
        "lng": 11.57191,
        "objectRecognition": "false",
        "owner": "Ettstra\u00dfe 2, PP M\u00fcnchen",
        "realtime": "true"
    },
    {
        "adress": "Rosenkavalierplatz 2",
        "audio": "false",
        "category": "propertySec",
        "count": 33,
        "lat": 48.15273999999999,
        "lng": 11.61819,
        "objectRecognition": "false",
        "owner": "Dienstgeb\u00e4ude, StMUG",
        "realtime": "true"
    },
    {
        "adress": "Theresienstra\u00dfe 35a",
        "audio": "false",
        "category": "propertySec",
        "count": 43,
        "lat": 48.32328,
        "lng": 11.74976,
        "objectRecognition": "false",
        "owner": "Museum Brandhorst, Staatsgem\u00e4ldesammlungen",
        "realtime": "false"
    },
    {
        "adress": "Prinzregentenstra\u00dfe 3",
        "audio": "false",
        "category": "propertySec",
        "count": 57,
        "lat": 47.8553053,
        "lng": 12.1254312,
        "objectRecognition": "false",
        "owner": "Museum, Bay. Nationalmuseum",
        "realtime": "true"
    },
    {
        "adress": "Prinzregentenstra\u00dfe 3",
        "audio": "false",
        "category": "propertySec",
        "count": 57,
        "lat": 47.8553053,
        "lng": 12.1254312,
        "objectRecognition": "false",
        "owner": "Prinzregentenstra\u00dfe 3, Bayerisches Nationalmuseum",
        "realtime": "true"
    },
    {
        "adress": "Barer Stra\u00dfe 27 ",
        "audio": "false",
        "category": "propertySec",
        "count": 101,
        "lat": 48.1480652,
        "lng": 11.5707873,
        "objectRecognition": "false",
        "owner": "Alte Pinakothek, Staatsgem\u00e4ldesammlungen",
        "realtime": "false"
    },
    {
        "adress": "Barer Stra\u00dfe 29 ",
        "audio": "false",
        "category": "propertySec",
        "count": 115,
        "lat": 48.149431,
        "lng": 11.57083,
        "objectRecognition": "false",
        "owner": "Pinakothek der Moderne, Staatsgem\u00e4ldesammlungen",
        "realtime": "false"
    },
    {
        "adress": "",
        "audio": "false",
        "category": "traffic, propertySec",
        "count": 118,
        "lat": 0,
        "lng": 0,
        "objectRecognition": "false",
        "owner": "Parkierungs-einrichtungen auf Privatgrund, P+R Park  &  Ride GmbH",
        "realtime": "true"
    },
    {
        "adress": "Werner-Heisenberg-Allee 25",
        "audio": "true",
        "category": "publicSecurity",
        "count": 1,
        "lat": 48.2186,
        "lng": 11.62362,
        "objectRecognition": "false",
        "owner": "Fu\u00dfball Arena, Polizei",
        "realtime": "true"
    },
    {
        "adress": "Pacellistr 5",
        "audio": "false",
        "category": "publicSecurity",
        "count": 1,
        "lat": 52.46948,
        "lng": 13.28913,
        "objectRecognition": "false",
        "owner": "AG, Pacellistra\u00dfe 5, Nebenausgang Ost, StMJV",
        "realtime": "true"
    },
    {
        "adress": "Pacellistr 5",
        "audio": "false",
        "category": "publicSecurity",
        "count": 1,
        "lat": 52.46948,
        "lng": 13.28913,
        "objectRecognition": "false",
        "owner": "AG, Infanteriestra\u00dfe 5, Personalnebeneingang, StMJV",
        "realtime": "true"
    },
    {
        "adress": "Pacellistr 5",
        "audio": "false",
        "category": "publicSecurity",
        "count": 2,
        "lat": 52.46948,
        "lng": 13.28913,
        "objectRecognition": "false",
        "owner": "AG, Pacellistra\u00dfe 5, Eingang S\u00fcd, StMJV",
        "realtime": "true"
    },
    {
        "adress": "Friedenheimer Br\u00fccke",
        "audio": "false",
        "category": "publicSecurity",
        "count": 3,
        "lat": 48.1436344,
        "lng": 11.5195177,
        "objectRecognition": "false",
        "owner": "Hirschgarten, DB Station & Service AG",
        "realtime": "false"
    },
    {
        "adress": "Karlsplatz",
        "audio": "false",
        "category": "publicSecurity",
        "count": 3,
        "lat": 48.2003216,
        "lng": 16.3709743,
        "objectRecognition": "false",
        "owner": "Stachus / HBF, PP M\u00fcnchen",
        "realtime": "true"
    },
    {
        "adress": "Sendlinger Tor",
        "audio": "false",
        "category": "publicSecurity",
        "count": 3,
        "lat": 48.133445,
        "lng": 11.566683,
        "objectRecognition": "false",
        "owner": "Sendlinger Tor, PP M\u00fcnchen",
        "realtime": "true"
    },
    {
        "adress": "Hackerbr\u00fccke",
        "audio": "false",
        "category": "publicSecurity",
        "count": 4,
        "lat": 48.1415102,
        "lng": 11.548463,
        "objectRecognition": "false",
        "owner": "Hackerbr\u00fccke, DB Station & Service AG",
        "realtime": "false"
    },
    {
        "adress": "Giesinger Bahnhofplatz",
        "audio": "false",
        "category": "publicSecurity",
        "count": 4,
        "lat": 48.1104912,
        "lng": 11.5954369,
        "objectRecognition": "false",
        "owner": "Giesing (Versuchsanlage), DB Station & Service AG",
        "realtime": "false"
    },
    {
        "adress": "Alter Hof 3 ",
        "audio": "false",
        "category": "publicSecurity",
        "count": 5,
        "lat": 52.8706927,
        "lng": 11.0859455,
        "objectRecognition": "false",
        "owner": "Eintrittskarten-kassen, Bayer. Staatstheater",
        "realtime": "false"
    },
    {
        "adress": "Landsbergerstr. 300",
        "audio": "false",
        "category": "publicSecurity",
        "count": 6,
        "lat": 48.14368,
        "lng": 11.50244,
        "objectRecognition": "false",
        "owner": "Laim, DB Station & Service AG",
        "realtime": "false"
    },
    {
        "adress": "Donnersbergerbr\u00fccke",
        "audio": "false",
        "category": "publicSecurity",
        "count": 7,
        "lat": 48.142623,
        "lng": 11.536537,
        "objectRecognition": "false",
        "owner": "Donnersbergerbr\u00fccke, DB Station & Service AG",
        "realtime": "false"
    },
    {
        "adress": "Rupert-Mayer-Str. 40",
        "audio": "false",
        "category": "publicSecurity",
        "count": 8,
        "lat": 48.6748603,
        "lng": 9.2753806,
        "objectRecognition": "false",
        "owner": "Siemenswerke (Versuchsanlage), DB Station & Service AG",
        "realtime": "false"
    },
    {
        "adress": "Zweibr\u00fcckenstra\u00dfe 5-7",
        "audio": "false",
        "category": "publicSecurity",
        "count": 9,
        "lat": 48.15326,
        "lng": 12.18405,
        "objectRecognition": "false",
        "owner": "Isartor, DB Station & Service AG",
        "realtime": "false"
    },
    {
        "adress": "Rosenheimer Platz",
        "audio": "false",
        "category": "publicSecurity",
        "count": 10,
        "lat": 48.129168,
        "lng": 11.593049,
        "objectRecognition": "false",
        "owner": "Rosenheimer Platz, DB Station & Service AG",
        "realtime": "false"
    },
    {
        "adress": "Marienplatz",
        "audio": "false",
        "category": "publicSecurity",
        "count": 13,
        "lat": 48.6293689,
        "lng": 12.4986873,
        "objectRecognition": "false",
        "owner": "Christkindlmarkt, PP M\u00fcnchen",
        "realtime": "true"
    },
    {
        "adress": "Theresienwiese",
        "audio": "false",
        "category": "publicSecurity",
        "count": 17,
        "lat": 48.13571899999999,
        "lng": 11.552274,
        "objectRecognition": "false",
        "owner": "Oktoberfest, PP M\u00fcnchen",
        "realtime": "true"
    },
    {
        "adress": "Karlsplatz",
        "audio": "false",
        "category": "publicSecurity",
        "count": 18,
        "lat": 48.2003216,
        "lng": 16.3709743,
        "objectRecognition": "false",
        "owner": "Karlsplatz, DB Station & Service AG",
        "realtime": "false"
    },
    {
        "adress": "Marienplatz 1",
        "audio": "false",
        "category": "publicSecurity",
        "count": 18,
        "lat": 48.1373932,
        "lng": 11.5754485,
        "objectRecognition": "false",
        "owner": "Marienplatz, DB Station & Service AG",
        "realtime": "false"
    },
    {
        "adress": "Orleansplatz 9a",
        "audio": "false",
        "category": "publicSecurity",
        "count": 37,
        "lat": 32.429685,
        "lng": -93.729646,
        "objectRecognition": "false",
        "owner": "Ostbahnhof, DB Station & Service AG",
        "realtime": "false"
    },
    {
        "adress": "Stadelheimer Stra\u00dfe 12",
        "audio": "false",
        "category": "publicSecurity",
        "count": 314,
        "lat": 48.1009357,
        "lng": 11.5915344,
        "objectRecognition": "true",
        "owner": "JVA M\u00fcnchen, JVA",
        "realtime": "true"
    },
    {
        "adress": "Paul-Henri-Spaak-Str. 12",
        "audio": "false",
        "category": "traffic",
        "count": 4,
        "lat": 48.13791,
        "lng": 11.69781,
        "objectRecognition": "false",
        "owner": "Parkhaus Nord, Messe M\u00fcnchen",
        "realtime": "true"
    },
    {
        "adress": "",
        "audio": "false",
        "category": "",
        "count": 941,
        "lat": 0,
        "lng": 0,
        "objectRecognition": "false",
        "owner": "\u00d6PNV-Fahrzeuge Bus, Stadtwerke M\u00fcnchen GmbH",
        "realtime": "false"
    },
    {
        "adress": "",
        "audio": "false",
        "category": "",
        "count": 308,
        "lat": 0,
        "lng": 0,
        "objectRecognition": "false",
        "owner": "\u00d6PNV-Fahrzeuge Tram, Stadtwerke M\u00fcnchen GmbH",
        "realtime": "false"
    },
    {
        "adress": "",
        "audio": "false",
        "category": "",
        "count": 400,
        "lat": 0,
        "lng": 0,
        "objectRecognition": "false",
        "owner": "\u00d6PNV-Fahrzeuge U-Bahn, Stadtwerke M\u00fcnchen GmbH",
        "realtime": "false"
    }
]